"","id","name","lat","lng","installed","numberDocks"
"1",1,"River Street , Clerkenwell",51.52916347,-0.109970527,"true",19
"2",2,"Phillimore Gardens, Kensington",51.49960695,-0.197574246,"true",37
"3",3,"Christopher Street, Liverpool Street",51.52128377,-0.084605692,"true",32
"4",4,"St. Chad's Street, King's Cross",51.53005939,-0.120973687,"true",23
"5",5,"Sedding Street, Sloane Square",51.49313,-0.156876,"true",27
"6",6,"Broadcasting House, Marylebone",51.51811784,-0.144228881,"true",18
"7",7,"Charlbert Street, St. John's Wood",51.53430039,-0.1680743,"true",16
"8",8,"Maida Vale, Maida Vale",51.529857,-0.18348604,"true",39
"9",9,"New Globe Walk, Bankside",51.5073853,-0.096440751,"true",19
"10",10,"Park Street, Bankside",51.50597426,-0.092754157,"true",18
"11",11,"Brunswick Square, Bloomsbury",51.52395143,-0.122502346,"true",24
"12",12,"Malet Street, Bloomsbury",51.52168078,-0.130431727,"true",49
"13",13,"Scala Street, Fitzrovia",51.51991453,-0.136039674,"true",21
"14",14,"Argyle Street, Kings Cross",51.529416,-0.123944399999999,"true",45
"15",15,"Great Russell Street, Bloomsbury",51.51772703,-0.127854211,"true",26
"16",16,"Cartwright Gardens , Bloomsbury",51.52635795,-0.125979294,"true",21
"17",17,"Hatton Wall, Holborn",51.5216612,-0.109006325,"true",26
"18",18,"Drury Lane, Covent Garden",51.51477076,-0.12221963,"true",27
"19",19,"Taviton Street, Bloomsbury",51.52505093,-0.131161087,"true",30
"20",20,"Drummond Street , Euston",51.527326,-0.13605286,"true",28
"21",21,"Lansdowne Drive, Hackney Central",51.539834,-0.062806212,"true",26
"22",22,"Northington Street , Holborn",51.5222641,-0.114079481,"true",19
"23",23,"Red Lion Square, Holborn",51.51943538,-0.119123345,"true",16
"24",24,"British Museum, Bloomsbury",51.51908011,-0.124678402,"true",35
"25",25,"Doric Way , Somers Town",51.5288338,-0.132250369,"true",50
"26",26,"Ampton Street , Clerkenwell",51.52728093,-0.11829517,"true",21
"27",27,"Bouverie Street, Temple",51.51382102,-0.107927706,"true",33
"28",28,"Bolsover Street, Fitzrovia",51.52351808,-0.143613641,"true",19
"29",29,"Hereford Road, Bayswater",51.513735,-0.193487,"true",22
"30",30,"Windsor Terrace, Hoxton",51.52915444,-0.093421615,"true",24
"31",31,"Fanshaw Street, Hoxton",51.52953709,-0.083353323,"true",36
"32",32,"Leonard Circus , Shoreditch",51.52469624,-0.084439283,"true",43
"33",33,"Central House, Aldgate",51.515231,-0.07015,"true",18
"34",34,"Pancras Road, King's Cross",51.5341235,-0.129386874,"true",16
"35",36,"De Vere Gardens, Kensington",51.50173726,-0.184980612,"true",28
"36",37,"Penywern Road, Earl's Court",51.49159394,-0.192369256,"true",17
"37",38,"Abingdon Villas, Kensington",51.4973875,-0.197245586,"true",17
"38",39,"Shoreditch High Street, Shoreditch",51.5263778,-0.078130921,"true",41
"39",40,"Commercial Street, Shoreditch",51.52127071,-0.0755789,"true",16
"40",41,"Pindar Street, Liverpool Street",51.520955,-0.083493552,"true",24
"41",42,"Wenlock Road , Hoxton",51.53099181,-0.093903825,"true",28
"42",43,"Crawford Street, Marylebone",51.52026,-0.157183945,"true",18
"43",44,"Bruton Street, Mayfair",51.51073687,-0.144165239,"true",21
"44",45,"Boston Place, Marylebone",51.522511,-0.162298,"true",26
"45",46,"Nesham Street, Wapping",51.507131,-0.06691,"true",16
"46",47,"Warwick Avenue Station, Maida Vale",51.52334476,-0.183846408,"true",19
"47",48,"Godliman Street, St. Paul's",51.51248445,-0.099141408,"true",25
"48",49,"Curzon Street, Mayfair",51.50706909,-0.145904427,"true",16
"49",50,"East Road, Hoxton",51.52867339,-0.087459376,"true",27
"50",51,"Finsbury Library , Finsbury",51.52671796,-0.104298194,"true",29
"51",52,"Roscoe Street, St. Luke's",51.52295439,-0.094934859,"true",18
"52",53,"Grafton Street, Mayfair",51.5099923,-0.143495266,"true",18
"53",54,"Golden Lane, Barbican",51.52174785,-0.094475072,"true",27
"54",55,"Finsbury Circus, Liverpool Street",51.51707521,-0.086685542,"true",33
"55",56,"Paddington Street, Marylebone",51.52058381,-0.154701411,"true",16
"56",57,"Guilford Street , Bloomsbury",51.52334672,-0.120202614,"true",32
"57",58,"New Inn Yard, Shoreditch",51.52452699,-0.079248081,"true",20
"58",60,"Lisson Grove, St. John's Wood",51.52644828,-0.172190727,"true",18
"59",61,"Great Dover Street, The Borough",51.49738251,-0.089446947,"true",33
"60",62,"Cotton Garden Estate, Kennington",51.4907579,-0.106323685,"true",24
"61",63,"Murray Grove , Hoxton",51.53089041,-0.089782579,"true",27
"62",64,"William IV Street, Strand",51.50946212,-0.124749274,"true",26
"63",65,"Gower Place , Euston",51.52522753,-0.13518856,"true",17
"64",66,"Holborn Circus, Holborn",51.51795029,-0.108657431,"true",40
"65",67,"Hatton Garden, Holborn",51.51882555,-0.108028472,"true",28
"66",68,"Theobald's Road , Holborn",51.52059681,-0.116688468,"true",26
"67",69,"Euston Road, Euston",51.5262363,-0.134407652,"true",24
"68",70,"Calshot Street , King's Cross",51.53136059,-0.117069978,"true",24
"69",71,"Newgate Street , St. Paul's",51.5154186,-0.098850915,"true",34
"70",72,"Farringdon Lane, Clerkenwell",51.52352001,-0.108340165,"true",16
"71",73,"Old Street Station, St. Luke's",51.52548,-0.089659871,"true",29
"72",74,"Vauxhall Cross, Vauxhall",51.48591714,-0.124469948,"true",17
"73",75,"Torrens Street, Angel",51.53219984,-0.105480698,"true",19
"74",76,"Longford Street, The Regent's Park",51.52559505,-0.144083893,"true",21
"75",77,"Russell Square Station, Bloomsbury",51.52341837,-0.124121774,"true",26
"76",78,"Sadlers Sports Centre, Finsbury",51.52486887,-0.099489485,"true",17
"77",79,"Arundel Street, Temple",51.511726,-0.11385596,"true",18
"78",80,"Webber Street , Southwark",51.50069361,-0.102091246,"true",45
"79",81,"Great Titchfield Street, Fitzrovia",51.52025302,-0.141327271,"true",19
"80",82,"Chancery Lane, Holborn",51.514274,-0.111257,"true",15
"81",83,"Panton Street, West End",51.50963938,-0.131510949,"true",21
"82",84,"Breams Buildings, Holborn",51.51593725,-0.111778348,"true",25
"83",85,"Tanner Street, Bermondsey",51.50064702,-0.078600401,"true",41
"84",86,"Sancroft Street, Vauxhall",51.48947903,-0.115156562,"true",24
"85",88,"Bayley Street , Bloomsbury",51.51858757,-0.132053392,"true",25
"86",89,"Tavistock Place, Bloomsbury",51.5262503,-0.123509611,"true",19
"87",90,"Harrington Square 1, Camden Town",51.53301907,-0.139174593,"true",27
"88",91,"Walnut Tree Walk, Vauxhall",51.49368637,-0.111014912,"true",20
"89",92,"Borough Road, Elephant & Castle",51.49889832,-0.100440521,"true",41
"90",93,"Cloudesley Road, Angel",51.53440868,-0.109025404,"true",37
"91",94,"Bricklayers Arms, Borough",51.49506109,-0.085814489,"true",28
"92",95,"Aldersgate Street, Barbican",51.5208417,-0.097340162,"true",15
"93",96,"Falkirk Street, Hoxton",51.53095071,-0.078505384,"true",26
"94",97,"Gloucester Road (North), Kensington",51.49792478,-0.183834706,"true",18
"95",98,"Hampstead Road, Euston",51.52554222,-0.138231303,"true",54
"96",99,"Old Quebec Street, Marylebone",51.51457763,-0.158264483,"true",16
"97",100,"Albert Embankment, Vauxhall",51.49043573,-0.122806861,"true",24
"98",101,"Queen Street 1, Bank",51.51155322,-0.0929401,"true",22
"99",102,"Jewry Street, Aldgate",51.51340693,-0.076793375,"true",17
"100",103,"Vicarage Gate, Kensington",51.50472376,-0.192538767,"true",18
"101",104,"Crosswall, Tower",51.51159481,-0.077121322,"true",34
"102",105,"Westbourne Grove, Bayswater",51.51552971,-0.190240716,"true",26
"103",106,"Woodstock Street, Mayfair",51.51410514,-0.147301667,"true",21
"104",107,"Finsbury Leisure Centre, St. Luke's",51.52600832,-0.096317627,"true",20
"105",108,"Abbey Orchard Street, Westminster",51.49812559,-0.132102166,"true",29
"106",109,"Soho Square , Soho",51.51563144,-0.132328837,"true",57
"107",110,"Wellington Road, St. John's Wood",51.53304322,-0.172528678,"true",17
"108",111,"Park Lane , Hyde Park",51.5100172,-0.157275636,"true",28
"109",112,"Stonecutter Street, Holborn",51.51580998,-0.105270275,"true",21
"110",113,"Gloucester Road (Central), South Kensington",51.49646288,-0.183289032,"true",19
"111",114,"Park Road (Baker Street), The Regent's Park",51.52451738,-0.158963647,"true",22
"112",115,"Braham Street, Aldgate",51.51423368,-0.073537654,"true",34
"113",116,"Little Argyll Street, West End",51.51449962,-0.141423695,"true",21
"114",117,"Lollard Street, Vauxhall",51.49288067,-0.114934001,"true",25
"115",118,"Rochester Row, Westminster",51.49582705,-0.13547809,"true",13
"116",119,"Bath Street, St. Luke's",51.52589324,-0.090847761,"true",18
"117",120,"The Guildhall, Guildhall",51.51573534,-0.093080779,"true",17
"118",121,"Baker Street, Marylebone",51.51891348,-0.156166631,"true",22
"119",122,"Norton Folgate, Liverpool Street",51.52111369,-0.078869751,"true",23
"120",123,"St. John Street, Finsbury",51.52836014,-0.104724625,"true",18
"121",124,"Eaton Square, Belgravia",51.49654462,-0.150905245,"true",20
"122",125,"Borough High Street, The Borough",51.50069491,-0.094524319,"true",21
"123",126,"Museum of London, Barbican",51.51782144,-0.096496865,"true",52
"124",127,"Wood Street, Guildhall",51.51700801,-0.09388536,"true",17
"125",128,"Emperor's Gate, South Kensington",51.49536226,-0.185296516,"true",22
"126",129,"Golden Square, Soho",51.5118973,-0.137043852,"true",18
"127",130,"Tower Gardens , Tower",51.50950627,-0.075459482,"true",24
"128",131,"Eversholt Street , Camden Town",51.53300545,-0.136792671,"true",16
"129",132,"Bethnal Green Road, Shoreditch",51.52364804,-0.074754872,"true",38
"130",133,"Derry Street, Kensington",51.50136494,-0.191462381,"true",18
"131",134,"Wapping High Street, Wapping",51.504904,-0.06797,"true",20
"132",135,"Clerkenwell Green, Clerkenwell",51.52326004,-0.104708922,"true",21
"133",136,"Queen Victoria Street, St. Paul's",51.51196176,-0.097441687,"true",32
"134",138,"Green Street, Mayfair",51.51227622,-0.157436972,"true",19
"135",139,"Lambeth Road, Vauxhall",51.49488108,-0.117974901,"true",18
"136",140,"Finsbury Square , Moorgate",51.52096262,-0.085634242,"true",33
"137",141,"Chapel Place, Marylebone",51.51530805,-0.147203711,"true",29
"138",142,"West Cromwell Road, Earl's Court",51.49372451,-0.198286569,"true",24
"139",143,"Pont Street, Knightsbridge",51.4968865,-0.161203828,"true",24
"140",144,"Kennington Cross, Kennington",51.48894022,-0.111435796,"true",47
"141",145,"Ilchester Place, Kensington",51.50074359,-0.202759212,"true",24
"142",146,"Vauxhall Bridge , Pimlico",51.48836528,-0.129361842,"true",35
"143",147,"Portugal Street, Holborn",51.51494305,-0.11614642,"true",16
"144",148,"Tachbrook Street, Victoria",51.49211134,-0.138364847,"true",16
"145",149,"Kennington Road Post Office, Oval",51.48478899,-0.110683213,"true",18
"146",150,"Holy Trinity Brompton, Knightsbridge",51.49705603,-0.168917077,"true",28
"147",151,"Chepstow Villas, Notting Hill",51.51213691,-0.201554966,"true",26
"148",152,"Hampton Street, Walworth",51.49217002,-0.101536865,"true",21
"149",153,"Bayswater Road, Hyde Park",51.511933,-0.174411,"true",27
"150",154,"Waterloo Station 3, Waterloo",51.50379168,-0.11282408,"true",35
"151",155,"Lexham Gardens, Kensington",51.49586666,-0.191933711,"true",19
"152",156,"New Kent Road, The Borough",51.49443626,-0.092921165,"true",33
"153",157,"Wright's Lane, Kensington",51.50039792,-0.193068385,"true",37
"154",158,"Trebovir Road, Earl's Court",51.49085368,-0.196170309,"true",18
"155",160,"Waterloo Place, St. James's",51.50663341,-0.131773845,"true",20
"156",161,"Guildhouse Street, Victoria",51.49234577,-0.141334487,"true",16
"157",162,"Southampton Place, Holborn",51.51760685,-0.121328408,"true",20
"158",163,"Sloane Avenue, Knightsbridge",51.4931848,-0.167894973,"true",27
"159",164,"Cleveland Gardens, Bayswater",51.515607,-0.183118788,"true",16
"160",165,"Orsett Terrace, Bayswater",51.517932,-0.183716959,"true",15
"161",166,"Seville Street, Knightsbridge",51.50185512,-0.159237081,"true",27
"162",167,"Eccleston Place, Victoria",51.49395092,-0.147624377,"true",19
"163",168,"Argyll Road, Kensington",51.50040123,-0.195455928,"true",19
"164",169,"Porchester Place, Paddington",51.5147461,-0.165164000000004,"true",18
"165",170,"Hardwick Street, Clerkenwell",51.5278427,-0.1080682,"true",30
"166",171,"Collingham Gardens, Earl's Court",51.4916156,-0.186753859,"true",14
"167",172,"Sumner Place, South Kensington",51.49121192,-0.173715911,"true",19
"168",173,"Waterloo Road, South Bank",51.50486,-0.113001,"true",15
"169",174,"Strand, Strand",51.512582,-0.1150573,"true",35
"170",175,"Worship Street, Shoreditch",51.521668,-0.079608554,"true",51
"171",176,"Gloucester Terrace, Bayswater",51.51791921,-0.188098863,"true",23
"172",177,"Ashley Place, Victoria",51.49616092,-0.140947636,"true",25
"173",178,"Warwick Square, Pimlico",51.48985626,-0.141923621,"true",19
"174",180,"North Audley Street, Mayfair",51.5129118,-0.153645496,"true",17
"175",181,"Belgrave Square, Belgravia",51.49941247,-0.152317537,"true",21
"176",182,"Bell Street , Marylebone",51.52202903,-0.165842551,"true",18
"177",183,"Riverlight North, Nine Elms",51.482362,-0.13612398,"true",24
"178",184,"Portland Place, Marylebone",51.52071513,-0.14521173,"true",34
"179",185,"Alderney Street, Pimlico",51.48805753,-0.140741432,"true",14
"180",186,"South Wharf Road, Paddington",51.51733558,-0.175810943,"true",16
"181",187,"Queen's Gate (South), South Kensington",51.49247977,-0.178433004,"true",25
"182",188,"Nutford Place, Marylebone",51.5165179,-0.164393768,"true",18
"183",189,"Claremont Square, Angel",51.53166681,-0.109914711,"true",18
"184",190,"Rampayne Street, Pimlico",51.48997562,-0.132845681,"true",21
"185",191,"Hyde Park Corner, Hyde Park",51.50311799,-0.153520935,"true",36
"186",192,"Wardour Street, Soho",51.51251523,-0.133201961,"true",16
"187",193,"Bankside Mix, Bankside",51.50581776,-0.100186337,"true",60
"188",194,"Hop Exchange, The Borough",51.50462759,-0.091773776,"true",56
"189",195,"Milroy Walk, South Bank",51.50724437,-0.106237501,"true",30
"190",196,"Union Street, The Borough",51.50368837,-0.098497684,"true",17
"191",197,"Stamford Street, South Bank",51.50556905,-0.111606696,"true",27
"192",199,"Great Tower Street, Monument",51.51048489,-0.082989638,"true",24
"193",201,"Dorset Square, Marylebone",51.5225965,-0.161113413,"true",16
"194",202,"Leman Street, Aldgate",51.51236389,-0.06954201,"true",37
"195",203,"West Smithfield Rotunda, Farringdon",51.51821864,-0.100791005,"true",15
"196",204,"Margery Street, Clerkenwell",51.52659961,-0.112432615,"true",19
"197",206,"New Road 1 , Whitechapel",51.518154,-0.062697,"true",36
"198",207,"Grosvenor Crescent, Belgravia",51.50135267,-0.153194766,"true",18
"199",208,"Mallory Street, Marylebone",51.52505151,-0.166304359,"true",20
"200",209,"Denyer Street, Knightsbridge",51.49358391,-0.165101392,"true",30
"201",210,"Hinde Street, Marylebone",51.51681444,-0.151926305,"true",21
"202",211,"Cadogan Place, Knightsbridge",51.49464523,-0.158105512,"true",34
"203",212,"Campden Hill Road, Notting Hill",51.50658458,-0.199004026,"true",17
"204",213,"Wellington Arch, Hyde Park",51.50274025,-0.149569201,"true",36
"205",214,"Endsleigh Gardens, Euston",51.52683806,-0.130504336,"true",32
"206",215,"Moorfields, Moorgate",51.51906932,-0.088285377,"true",54
"207",216,"Old Brompton Road, South Kensington",51.49094565,-0.181190899,"true",30
"208",217,"Wormwood Street, Liverpool Street",51.51615461,-0.082422399,"true",16
"209",218,"St. Luke's Church, Chelsea",51.48971651,-0.170194408,"true",20
"210",219,"Bramham Gardens, Earl's Court",51.49016361,-0.19039362,"true",29
"211",220,"Chelsea Green, Chelsea",51.49066456,-0.166485083,"true",15
"212",221,"Horseferry Road, Westminster",51.49481649,-0.13045856,"true",16
"213",222,"Knightsbridge, Hyde Park",51.50275704,-0.155349725,"true",43
"214",223,"Rodney Road , Walworth",51.49148474,-0.090220911,"true",24
"215",224,"Queensway, Kensington Gardens",51.51031,-0.18740235,"true",17
"216",225,"Notting Hill Gate Station, Notting Hill",51.50935342,-0.196422,"true",30
"217",226,"Charles II Street, West End",51.50844614,-0.131961389,"true",24
"218",227,"Great Percy Street, Clerkenwell",51.52891573,-0.115480888,"true",23
"219",228,"St. James's Square, St. James's",51.50742485,-0.134621209,"true",40
"220",229,"Whitehall Place, Strand",51.50654321,-0.123179697,"true",46
"221",230,"Poured Lines, Bankside",51.50669284,-0.103137426,"true",31
"222",231,"Queen's Gate (Central), South Kensington",51.49396755,-0.17873226,"true",31
"223",232,"Carey Street, Holborn",51.51501025,-0.112753217,"true",16
"224",233,"Pall Mall East, West End",51.50777049,-0.130699733,"true",22
"225",234,"Liverpool Road (N1 Centre), Angel",51.53450449,-0.106992706,"true",24
"226",235,"Kennington Road  , Vauxhall",51.49571828,-0.110889274,"true",36
"227",236,"Fashion Street, Whitechapel",51.51838043,-0.073438925,"true",30
"228",237,"Dock Street, Wapping",51.5097860151,-0.0681619805156,"true",30
"229",238,"Frampton Street, Paddington",51.5233534,-0.175116099,"true",32
"230",239,"Warren Street Station, Euston",51.52443845,-0.138019439,"true",26
"231",242,"Beaumont Street, Marylebone",51.52200801,-0.151359288,"true",23
"232",243,"Gloucester Street, Pimlico",51.49096258,-0.139625122,"true",25
"233",244,"Earnshaw Street , Covent Garden",51.51611887,-0.128585022,"true",18
"234",245,"Grosvenor Road, Pimlico",51.4853572,-0.142207481,"true",29
"235",246,"Berry Street, Clerkenwell",51.52285301,-0.099994052,"true",41
"236",247,"St. John's Wood Church, The Regent's Park",51.530529,-0.167515,"true",50
"237",248,"Triangle Car Park, Hyde Park",51.50645179,-0.170279555,"true",27
"238",249,"Harper Road, The Borough",51.49859784,-0.096191134,"true",42
"239",250,"Royal Avenue 1, Chelsea",51.489932,-0.162727,"true",10
"240",251,"Brushfield Street, Liverpool Street",51.518908,-0.079249,"true",34
"241",253,"Shoreditch Park, Hoxton",51.53404294,-0.086379717,"true",30
"242",254,"Chadwell Street, Angel",51.53051587,-0.106408455,"true",18
"243",255,"Clifton Road, Maida Vale",51.52557531,-0.179592915,"true",22
"244",256,"Houghton Street, Strand",51.51362054,-0.116764211,"true",15
"245",257,"Westminster University, Marylebone",51.52248185,-0.154907218,"true",16
"246",258,"Kensington Gore, Knightsbridge",51.50143293,-0.178656971,"true",23
"247",259,"Bourne Street, Belgravia",51.490959,-0.1532331,"true",16
"248",260,"Broadwick Street, Soho",51.5136846,-0.135580879,"true",18
"249",261,"Princes Square, Bayswater",51.5134891,-0.191351186,"true",16
"250",262,"LSBU (Borough Road), Elephant & Castle",51.49874469,-0.103132904,"true",35
"251",263,"St. Mary Axe, Aldgate",51.51422502,-0.080660083,"true",21
"252",264,"Tysoe Street, Clerkenwell",51.52644342,-0.109256828,"true",20
"253",265,"Southwick Street, Paddington",51.51595344,-0.169249375,"true",17
"254",266,"Queen's Gate (North), Kensington",51.50102668,-0.180246101,"true",41
"255",267,"Regency Street, Westminster",51.49206037,-0.132224622,"true",22
"256",268,"Belgrave Road, Victoria",51.49320445,-0.144132875,"true",29
"257",269,"Empire Square, The Borough",51.50082346,-0.089740764,"true",46
"258",270,"Kennington Lane Rail Bridge, Vauxhall",51.4863434,-0.122492418,"true",31
"259",271,"London Zoo,  The Regent's Park",51.53583617,-0.156285395,"true",32
"260",272,"Baylis Road, Waterloo",51.50144456,-0.110699309,"true",22
"261",273,"Belvedere Road 1, South Bank",51.50613324,-0.114686385,"true",38
"262",274,"Warwick Road, Olympia",51.49671237,-0.20528437,"true",36
"263",275,"Barbican Centre, Barbican",51.52004497,-0.092176447,"true",19
"264",276,"Lower Thames Street, Monument",51.50930161,-0.084985356,"true",24
"265",277,"Kensington Church Street, Kensington",51.50315739,-0.191496313,"true",17
"266",278,"Tooley Street, Bermondsey",51.5034938,-0.07962099,"true",27
"267",279,"North Wharf Road, Paddington",51.51862243,-0.176645823,"true",25
"268",280,"Royal Avenue 2, Chelsea",51.490083,-0.162418,"true",10
"269",281,"Smith Square, Westminster",51.49580589,-0.127575233,"true",18
"270",282,"Royal London Hospital, Whitechapel",51.518675,-0.06111,"true",42
"271",283,"Kingsway, Covent Garden",51.51440928,-0.118478757,"true",16
"272",284,"Lambeth North Station, Waterloo",51.49914063,-0.112031483,"true",20
"273",286,"St. John's Wood Road, St. John's Wood",51.5272947,-0.174653609,"true",35
"274",287,"Bedford Way, Bloomsbury",51.52367314,-0.128377673,"true",23
"275",288,"Elizabeth Bridge, Victoria",51.49236962,-0.147478734,"true",34
"276",289,"South Audley Street, Mayfair",51.50923,-0.151289999999989,"true",15
"277",290,"St Mary's Hospital, Paddington",51.518268,-0.17110323,"true",20
"278",291,"Claverton Street, Pimlico",51.48483991,-0.138089062,"true",32
"279",292,"Montpelier Street, Knightsbridge",51.49888404,-0.165471605,"true",16
"280",293,"Kensington Olympia Station, Olympia",51.49815779,-0.209494128,"true",25
"281",294,"St. George's Square, Pimlico",51.488226,-0.135635511,"true",16
"282",295,"Swan Street, The Borough",51.50029631,-0.092762704,"true",27
"283",296,"Knaresborough Place, Earl's Court",51.49363156,-0.190603326,"true",18
"284",297,"Geraldine Street, Elephant & Castle",51.49612799,-0.106000855,"true",17
"285",298,"Curlew Street, Shad Thames",51.50227992,-0.074189225,"true",21
"286",299,"Vincent Square, Westminster",51.49398524,-0.136928582,"true",19
"287",300,"Serpentine Car Park, Hyde Park",51.505014,-0.17306032,"true",18
"288",301,"Marylebone Lane, Marylebone",51.51475963,-0.148105415,"true",24
"289",302,"Putney Pier, Wandsworth",51.466907,-0.216573,"true",28
"290",303,"Albert Gate, Hyde Park",51.50295379,-0.158456089,"true",34
"291",306,"Rathbone Street, Fitzrovia",51.51816295,-0.135025698,"true",16
"292",307,"Black Lion Gate, Kensington Gardens",51.50990837,-0.187842717,"true",24
"293",308,"Long Lane , Bermondsey",51.49907558,-0.085666316,"true",20
"294",309,"Embankment (Savoy), Strand",51.50963123,-0.119047563,"true",41
"295",310,"Black Prince Road, Vauxhall",51.4908679,-0.116911864,"true",19
"296",311,"Foley Street, Fitzrovia",51.51918144,-0.140485596,"true",24
"297",312,"Grove End Road, St. John's Wood",51.53088935,-0.176770502,"true",20
"298",313,"Wells Street, Fitzrovia",51.51734403,-0.138072691,"true",38
"299",314,"Tyers Gate, Bermondsey",51.50088934,-0.083159352,"true",36
"300",315,"The Tennis Courts, The Regent's Park",51.52536703,-0.153463612,"true",16
"301",316,"Warwick Row, Westminster",51.497998,-0.14296064,"true",21
"302",317,"Dickens Square, Borough",51.49679128,-0.093913472,"true",32
"303",318,"Sackville Street, Mayfair",51.51004801,-0.138846453,"true",18
"304",319,"Baldwin Street, St. Luke's",51.52702563,-0.088542771,"true",21
"305",321,"Bermondsey Street, Bermondsey",51.49785559,-0.081608045,"true",24
"306",322,"Palissy Street, Shoreditch",51.526293,-0.073955,"true",26
"307",323,"Clifton Street, Shoreditch",51.523196,-0.083067,"true",24
"308",324,"Ontario Street, Elephant & Castle",51.49652013,-0.101384068,"true",15
"309",325,"St. Martin's Street, West End",51.50908747,-0.129697889,"true",18
"310",326,"Graham Street, Angel",51.53266186,-0.099981142,"true",26
"311",328,"New North Road 2, Hoxton",51.53114,-0.086016,"true",22
"312",329,"Prince Albert Road, The Regent's Park",51.53589283,-0.160854428,"true",24
"313",330,"Eastbourne Mews, Paddington",51.51641749,-0.179135079,"true",34
"314",331,"Bunhill Row, Moorgate",51.52085887,-0.089887855,"true",30
"315",332,"Nevern Place, Earl's Court",51.49334336,-0.194757949,"true",20
"316",333,"Palace Gardens Terrace, Notting Hill",51.50860544,-0.193764092,"true",37
"317",334,"Concert Hall Approach 1, South Bank",51.505044,-0.115851,"true",10
"318",335,"Tavistock Street, Covent Garden",51.51196803,-0.120718759,"true",33
"319",336,"Concert Hall Approach 2, South Bank",51.504942,-0.115533,"true",18
"320",337,"Pembridge Villas, Notting Hill",51.51108452,-0.197524944,"true",16
"321",338,"Wellington Street , Strand",51.51175646,-0.119643424,"true",24
"322",339,"Risinghill Street, Angel",51.5333196,-0.1117812,"true",25
"323",340,"Bank of England Museum, Bank",51.51444134,-0.087587447,"true",16
"324",341,"Craven Street, Strand",51.50810309,-0.12602103,"true",23
"325",343,"London Zoo Car Park, The Regent's Park",51.53692216,-0.150181444,"true",36
"326",344,"Goswell Road (City Uni), Finsbury",51.528246,-0.10102611,"true",17
"327",345,"Flood Street, Chelsea",51.48802358,-0.166878535,"true",33
"328",347,"Lower Marsh, Waterloo",51.50013942,-0.113936001,"true",17
"329",348,"Grosvenor Square, Mayfair",51.51217033,-0.150481272,"true",17
"330",349,"St. George Street, Mayfair",51.51196,-0.142783033,"true",18
"331",350,"Queen's Gate, Kensington Gardens",51.5017154373867,-0.1798541843891,"true",21
"332",351,"Macclesfield Rd, St Lukes",51.529423,-0.097122,"true",28
"333",352,"Vauxhall Street, Vauxhall",51.486965,-0.116625,"true",19
"334",353,"Greycoat Street , Westminster",51.49459148,-0.134234258,"true",17
"335",354,"Northumberland Avenue, Strand",51.506767,-0.123702,"true",37
"336",355,"Clapham Common Station, Clapham Common",51.461388,-0.13922146,"true",21
"337",356,"South Kensington Station, South Kensington",51.494412,-0.173881,"true",15
"338",357,"Howland Street, Fitzrovia",51.520994,-0.139016,"true",30
"339",358,"High Holborn , Covent Garden",51.516226,-0.124826,"true",20
"340",359,"Butler Place, Westminster",51.49782999,-0.135440826,"true",18
"341",360,"Howick Place, Westminster",51.49675303,-0.138733562,"true",27
"342",361,"Waterloo Station 2, Waterloo",51.50391973,-0.11342629,"true",55
"343",362,"Royal College Street, Camden Town",51.536264,-0.133952,"true",57
"344",363,"Lord's, St. John's Wood",51.5291212008901,-0.171185284853,"true",24
"345",364,"Store Street, Bloomsbury",51.519572,-0.13214036,"true",32
"346",365,"City Road, Angel",51.530344,-0.100168,"true",47
"347",366,"Millennium Hotel, Mayfair",51.5109192966489,-0.1511263847351,"true",27
"348",367,"Harrowby Street, Marylebone",51.5173721,-0.1642075,"true",16
"349",368,"Harriet Street, Knightsbridge",51.50024195,-0.15934065,"true",25
"350",370,"Paddington Green, Paddington",51.520205,-0.174593,"true",20
"351",371,"King Edward Walk, Waterloo",51.49775,-0.10988,"true",22
"352",372,"Sardinia Street, Holborn",51.515208,-0.117863,"true",24
"353",373,"Prince Consort Road, Knightsbridge",51.49980661,-0.176415994,"true",18
"354",374,"Waterloo Station 1, Waterloo",51.50402794,-0.11386436,"true",36
"355",375,"Kensington Town Hall, Kensington",51.50194596,-0.194392952,"true",18
"356",376,"Millbank Tower, Pimlico",51.49188409,-0.125674815,"true",24
"357",377,"Waterloo Bridge, South Bank",51.50535447,-0.113656543,"true",15
"358",378,"Natural History Museum, South Kensington",51.49559291,-0.179077626,"true",42
"359",379,"Turquoise Island, Notting Hill",51.51431171,-0.200838199,"true",21
"360",380,"Stanhope Gate, Mayfair",51.50686435,-0.150666888,"true",21
"361",381,"Charlotte Street, Fitzrovia",51.51953043,-0.13577731,"true",14
"362",382,"Farm Street, Mayfair",51.50935171,-0.14744969,"true",15
"363",383,"Frith Street, Soho",51.51310333,-0.13121385,"true",18
"364",384,"Marloes Road, Kensington",51.496481,-0.192404,"true",15
"365",386,"Moor Street, Soho",51.51352755,-0.130110822,"true",16
"366",387,"Fire Brigade Pier, Vauxhall",51.49369988,-0.121394101,"true",30
"367",388,"Southampton Street, Strand",51.51070161,-0.121723604,"true",14
"368",389,"Upper Grosvenor Street, Mayfair",51.51013066,-0.155757901,"true",18
"369",390,"Buxton Street 1, Shoreditch",51.521776,-0.068856,"true",41
"370",391,"Clifford Street, Mayfair",51.51066202,-0.142345694,"true",17
"371",392,"Imperial College, Knightsbridge",51.49942855,-0.179702476,"true",21
"372",393,"Snow Hill, Farringdon",51.51733427,-0.103604248,"true",15
"373",394,"Aberdeen Place, St. John's Wood",51.524826,-0.176268,"true",18
"374",395,"Cadogan Gardens, Chelsea",51.492462,-0.159919,"true",15
"375",396,"Shouldham Street, Marylebone",51.51809,-0.163609,"true",16
"376",397,"Devonshire Terrace, Bayswater",51.51348,-0.17977,"true",16
"377",398,"Holland Park, Kensington",51.502319,-0.200742,"true",30
"378",399,"Brick Lane Market, Shoreditch",51.52261762,-0.071653961,"true",24
"379",400,"George Street, Marylebone",51.517703,-0.154106,"true",27
"380",401,"Columbia Road, Shoreditch",51.528187,-0.075375,"true",24
"381",402,"Penfold Street, Marylebone",51.52289229,-0.171681991,"true",15
"382",403,"George Place Mews, Marylebone",51.51689296,-0.158249929,"true",16
"383",404,"Palace Gate, Kensington Gardens",51.50204238,-0.184400221,"true",13
"384",405,"Gloucester Road Station, South Kensington",51.49418566,-0.18267094,"true",15
"385",408,"Sun Street, Liverpool Street",51.520009,-0.083935724,"true",24
"386",409,"Strata, Elephant & Castle",51.493146,-0.099828,"true",41
"387",410,"Edgware Road Station, Marylebone",51.519968,-0.169774,"true",64
"388",411,"Rotherhithe Roundabout, Rotherhithe",51.499169,-0.055846029,"true",19
"389",412,"Cleaver Street, Kennington",51.488105,-0.110121,"true",17
"390",419,"Chelsea Bridge, Pimlico",51.485821,-0.149004,"true",15
"391",420,"Southwark Station 1, Southwark",51.504043,-0.105312,"true",37
"392",421,"Southwark Station 2, Southwark",51.504044,-0.104778,"true",45
"393",423,"Eaton Square (South), Belgravia",51.49456127,-0.15393398,"true",31
"394",424,"Ebury Bridge, Pimlico",51.490491,-0.149186,"true",29
"395",426,"Vincent Street, Pimlico",51.493072,-0.129925,"true",17
"396",427,"Cheapside, Bank",51.51397065,-0.09294031,"true",43
"397",428,"Exhibition Road, Knightsbridge",51.499917,-0.174554,"true",20
"398",430,"South Parade, Chelsea",51.48902,-0.17524,"true",18
"399",431,"Crinan Street, King's Cross",51.534474,-0.122203,"true",20
"400",432,"Exhibition Road Museums 1, South Kensington",51.496468,-0.17379696,"true",13
"401",433,"Wren Street, Holborn",51.524564,-0.116279,"true",33
"402",435,"Kennington Station, Kennington",51.488852,-0.105593,"true",23
"403",436,"Red Lion Street, Holborn",51.51824,-0.11655,"true",36
"404",437,"Vauxhall Walk, Vauxhall",51.488124,-0.120903,"true",27
"405",439,"Killick Street, King's Cross",51.5338,-0.118677,"true",22
"406",440,"Kennington Oval, Oval",51.483145,-0.113134,"true",33
"407",441,"Sail Street, Vauxhall",51.495656,-0.114605,"true",24
"408",442,"Walmer Road, Avondale",51.510101,-0.211358,"true",24
"409",443,"Philpot Street, Whitechapel",51.515256,-0.058641,"true",30
"410",444,"Bethnal Green Garden, Bethnal Green",51.52568,-0.055312,"true",24
"411",445,"Cheshire Street, Bethnal Green",51.52388,-0.065076,"true",28
"412",446,"York Hall, Bethnal Green",51.528936,-0.055894,"true",27
"413",447,"Jubilee Crescent, Cubitt Town",51.493381,-0.007542,"true",54
"414",448,"Fisherman's Walk West, Canary Wharf",51.50623,-0.02296,"true",36
"415",449,"Shadwell Station, Shadwell",51.511088,-0.057159,"true",35
"416",450,"Jubilee Street, Stepney",51.515975,-0.053177,"true",28
"417",451,"Hermitage Court, Wapping",51.504719,-0.063531,"true",16
"418",452,"St. Katharine's Way, Tower",51.505697,-0.070542,"true",24
"419",453,"Garnet Street, Shadwell",51.508447,-0.055167,"true",24
"420",454,"Napier Avenue, Millwall",51.487679,-0.021582,"true",20
"421",455,"East Ferry Road, Cubitt Town",51.49447,-0.014409,"true",17
"422",456,"Parkway, Camden Town",51.538071,-0.144664,"true",33
"423",457,"Castlehaven Road, Camden Town",51.542138,-0.145393,"true",29
"424",458,"Wapping Lane, Wapping",51.504749,-0.057544,"true",28
"425",459,"Gunmakers Lane, Old Ford",51.535179,-0.03338,"true",17
"426",460,"Burdett Road, Mile End",51.516196,-0.029138,"true",33
"427",461,"Aston Street, Stepney",51.516,-0.038775,"true",26
"428",462,"Bonny Street, Camden Town",51.541603,-0.138853,"true",45
"429",463,"Thurtle Road, Haggerston",51.534776,-0.071881,"true",22
"430",464,"St. Mary & St. Michael Church, Stepney",51.51417,-0.052099,"true",25
"431",465,"Pitfield Street North,Hoxton",51.53558,-0.08249,"true",28
"432",466,"Whiston Road, Haggerston",51.534464,-0.076341,"true",21
"433",467,"Southern Grove, Bow",51.523538,-0.030556,"true",17
"434",468,"Cantrell Road, Bow",51.521564,-0.022694,"true",24
"435",469,"Lindfield Street, Poplar",51.513757,-0.020467,"true",44
"436",470,"Mostyn Grove, Bow",51.530535,-0.025492,"true",46
"437",471,"Hewison Street, Old Ford",51.533283,-0.028155,"true",19
"438",472,"Malmesbury Road, Bow",51.529452,-0.027616,"true",21
"439",473,"Millharbour, Millwall",51.496137,-0.019355,"true",19
"440",474,"Gascoyne Road, Victoria Park",51.541515,-0.038557746,"true",20
"441",475,"Lightermans Road, Millwall",51.499041,-0.020157,"true",31
"442",476,"Stebondale Street, Cubitt Town",51.489096,-0.009205,"true",29
"443",477,"Spindrift Avenue, Millwall",51.49109,-0.018716,"true",36
"444",478,"Stepney Green Station, Stepney",51.521889,-0.04667,"true",21
"445",479,"Pott Street, Bethnal Green",51.527152,-0.058005,"true",20
"446",480,"Flamborough Street, Limehouse",51.5128711,-0.0389866,"true",25
"447",481,"Saunders Ness Road, Cubitt Town",51.487129,-0.0090011,"true",35
"448",482,"Exhibition Road Museums 2, South Kensington",51.495947,-0.17368958,"true",14
"449",483,"Albert Gardens, Stepney",51.51328,-0.047784,"true",33
"450",484,"Bromley High Street, Bow",51.528828,-0.013258,"true",24
"451",485,"Old Ford Road, Bethnal Green",51.531127,-0.048017,"true",24
"452",486,"Granby Street, Shoreditch",51.525645,-0.069543,"true",37
"453",487,"Canton Street, Poplar",51.511811,-0.025626,"true",23
"454",488,"Reardon Street, Wapping",51.506946,-0.058681,"true",22
"455",489,"Christian Street, Whitechapel",51.513074,-0.064094,"true",34
"456",490,"Pennington Street, Wapping",51.508622,-0.065006,"true",45
"457",491,"Queen Mary's, Mile End",51.522507,-0.041378,"true",45
"458",492,"Maplin Street, Mile End",51.525501,-0.032267204,"true",39
"459",494,"South Quay East, Canary Wharf",51.50196,-0.016251,"true",36
"460",495,"Bow Church Station, Bow",51.528169,-0.018703,"true",39
"461",496,"Devons Road, Bow",51.52512,-0.015578,"true",39
"462",497,"Merchant Street, Bow",51.526578,-0.027581,"true",27
"463",498,"Bow Road Station, Bow",51.527058,-0.025296,"true",42
"464",499,"Furze Green, Bow",51.519265,-0.021345,"true",36
"465",500,"Ansell House, Stepney",51.520019,-0.05438,"true",41
"466",501,"Cephas Street, Bethnal Green",51.522561,-0.054883,"true",24
"467",502,"Bonner Gate, Victoria Park",51.53341,-0.049591815,"true",21
"468",503,"Cleveland Way, Stepney",51.520893,-0.051394,"true",36
"469",504,"St. John's Park, Cubitt Town",51.496454,-0.009506,"true",30
"470",505,"Ackroyd Drive, Bow",51.520398,-0.026768,"true",29
"471",506,"Bell Lane, Liverpool Street",51.517475,-0.075855,"true",23
"472",507,"Clarkson Street, Bethnal Green",51.528692,-0.059091,"true",31
"473",508,"Fournier Street, Whitechapel",51.519362,-0.074431,"true",18
"474",509,"Fore Street Avenue, Guildhall",51.517842,-0.090075,"true",19
"475",510,"Westferry DLR, Limehouse",51.509303,-0.025996,"true",41
"476",511,"Sutton Street, Shadwell",51.511066,-0.053558,"true",33
"477",512,"Pritchard's Road, Bethnal Green",51.532091,-0.06142,"true",30
"478",513,"Watney Market, Stepney",51.5142228,-0.055656,"true",51
"479",514,"Portman Square, Marylebone",51.516204,-0.155525,"true",17
"480",515,"Russell Gardens, Olympia",51.500088,-0.211316,"true",24
"481",516,"Chrisp Street Market, Poplar",51.5112,-0.014438,"true",18
"482",517,"Ford Road, Old Ford",51.532513,-0.033085,"true",18
"483",518,"Antill Road, Mile End",51.528224,-0.037471,"true",30
"484",519,"Teviot Street, Poplar",51.518811,-0.011662,"true",33
"485",520,"Bancroft Road, Bethnal Green",51.526041,-0.047218,"true",21
"486",521,"Driffield Road, Old Ford",51.534137,-0.037366,"true",18
"487",522,"Clinton Road, Mile End",51.525941,-0.036017,"true",36
"488",523,"Langdon Park, Poplar",51.51549,-0.013475,"true",24
"489",524,"Lancaster Gate , Bayswater",51.511654,-0.179668,"true",38
"490",525,"Blythe Road, Olympia",51.496927,-0.21350087,"true",24
"491",526,"Lancaster Drive, Blackwall",51.503143,-0.008428,"true",27
"492",527,"Hansard Mews, Holland Park",51.503802,-0.215808,"true",20
"493",528,"Clarges Street, Mayfair",51.507326,-0.145827,"true",16
"494",529,"Manresa Road, Chelsea",51.486892,-0.170983,"true",18
"495",530,"Newby Place, Poplar",51.508896,-0.012413,"true",18
"496",531,"Twig Folly Bridge, Mile End",51.530326,-0.042744,"true",21
"497",532,"Jubilee Plaza, Canary Wharf",51.5034,-0.0202423000000067,"true",63
"498",533,"Wellington Row, Bethnal Green",51.528222,-0.069743,"true",33
"499",534,"Goldsmith's Row, Haggerston",51.531864,-0.066035,"true",27
"500",535,"Gloucester Avenue, Camden Town",51.537349,-0.147154,"true",24
"501",536,"Queensbridge Road, Haggerston",51.53385,-0.06992,"true",35
"502",537,"Old Montague Street, Whitechapel",51.51793,-0.067937,"true",18
"503",538,"Naval Row, Blackwall",51.508981,-0.00699,"true",21
"504",539,"Hoxton Station, Hoxton",51.531091,-0.075901,"true",22
"505",540,"Albany Street, The Regent's Park",51.528302,-0.144466,"true",27
"506",541,"Green Park Station, Mayfair",51.506613,-0.142844,"true",28
"507",542,"Salmon Lane, Limehouse",51.514115,-0.033828,"true",33
"508",543,"Lansdowne Walk, Ladbroke Grove",51.509591,-0.204666,"true",21
"509",544,"Percival Street, Finsbury",51.526153,-0.102208,"true",22
"510",545,"Arlington Road, Camden Town",51.539957,-0.145246,"true",24
"511",546,"New Fetter Lane, Holborn",51.517428,-0.107987,"true",21
"512",547,"East India DLR, Blackwall",51.509474,-0.002275,"true",51
"513",548,"Westminster Bridge Road, Elephant & Castle",51.498386,-0.107913,"true",26
"514",549,"Gaywood  Street, Elephant & Castle",51.49605,-0.104193,"true",45
"515",550,"Harford Street, Mile End",51.521564,-0.039264,"true",23
"516",551,"Import Dock, Canary Wharf",51.505772,-0.016460175,"true",39
"517",552,"Watney Street, Shadwell",51.511542,-0.056667,"true",27
"518",553,"Regent's Row , Haggerston",51.535678,-0.062546,"true",24
"519",554,"Aberfeldy Street, Poplar",51.513548,-0.005659,"true",16
"520",556,"Heron Quays DLR, Canary Wharf",51.502661,-0.021596,"true",27
"521",557,"King Edward Street, St Pauls",51.51601,-0.0985,"true",20
"522",558,"Page Street, Westminster",51.493978,-0.127554,"true",24
"523",559,"Abbotsbury Road, Holland Park",51.501391,-0.205991,"true",24
"524",560,"Ladbroke Grove Central, Ladbroke Grove",51.511624,-0.205921,"true",21
"525",561,"Rectory Square, Stepney",51.518369,-0.043371,"true",22
"526",562,"Bury Place, Holborn",51.51746,-0.12335,"true",21
"527",563,"Preston's Road, Cubitt Town",51.499286,-0.009152,"true",26
"528",564,"Somerset House, Strand",51.509943,-0.117619,"true",41
"529",565,"Selby Street, Whitechapel",51.521905,-0.063386,"true",17
"530",566,"Westfield Ariel Way, White City",51.509158,-0.224103,"true",42
"531",568,"Bishop's Bridge Road West, Bayswater",51.51616,-0.18697,"true",18
"532",569,"Pitfield Street Central, Hoxton",51.53213,-0.08299,"true",30
"533",570,"Upper Bank Street, Canary Wharf",51.503083,-0.017676,"true",36
"534",571,"Westfield Southern Terrace ,Shepherd's Bush",51.506256,-0.218337,"true",29
"535",572,"Greenland Road, Camden Town",51.539099,-0.141728,"true",36
"536",573,"Limerston Street, West Chelsea",51.485587,-0.18119,"true",18
"537",574,"Eagle Wharf Road, Hoxton",51.53356,-0.09315,"true",45
"538",576,"Alpha Grove, Millwall",51.497304,-0.022793,"true",23
"539",577,"Globe Town Market, Bethnal Green",51.528869,-0.047548,"true",20
"540",578,"Hollybush Gardens, Bethnal Green",51.527607,-0.057133,"true",32
"541",579,"Queen Street 2, Bank",51.511246,-0.093051,"true",36
"542",580,"Doddington Grove, Kennington",51.48692917,-0.102996299,"true",36
"543",581,"New Cavendish Street, Marylebone",51.519167,-0.147983,"true",18
"544",583,"Abingdon Green, Westminster",51.49764,-0.12597218,"true",20
"545",584,"Ilchester Gardens, Bayswater",51.51244,-0.19096,"true",21
"546",586,"Mudchute DLR, Cubitt Town",51.490645,-0.014582,"true",31
"547",587,"Monument Street, Monument",51.50964,-0.08497,"true",22
"548",588,"Hoxton Street, Hoxton",51.52959,-0.0801,"true",27
"549",589,"Drayton Gardens, West Chelsea",51.487196,-0.179369,"true",18
"550",590,"Greenberry Street, St.John's Wood",51.53256,-0.16862,"true",26
"551",591,"Westfield Library Corner, Shepherd's Bush",51.506093,-0.2242237,"true",27
"552",592,"Bishop's Bridge Road East, Bayswater",51.5171,-0.18377,"true",20
"553",593,"Northdown Street, King's Cross",51.531066,-0.11934,"true",21
"554",594,"Kingsway Southbound, Strand",51.513875,-0.117774,"true",33
"555",595,"Hammersmith Road, Hammersmith",51.493267,-0.21985,"true",22
"556",596,"Parson's Green , Parson's Green",51.472817,-0.199783,"true",21
"557",597,"Fulham Park Road, Fulham",51.473471,-0.20782,"true",27
"558",598,"Southerton Road, Hammersmith",51.494499,-0.228188,"true",38
"559",599,"Manbre Road, Hammersmith",51.485743,-0.223616,"true",28
"560",600,"South Lambeth Road, Vauxhall",51.481747,-0.124642,"true",21
"561",601,"BBC White City, White City",51.514767,-0.225787,"true",36
"562",602,"Union Grove, Wandsworth Road",51.472993,-0.133972,"true",45
"563",603,"Caldwell Street, Stockwell",51.477839,-0.116493,"true",44
"564",604,"St Martins Close, Camden Town",51.538792,-0.138535,"true",18
"565",605,"Seymour Place, Marylebone",51.520331,-0.163667,"true",29
"566",606,"Addison Road, Holland Park",51.504199,-0.210941,"true",26
"567",607,"Putney Bridge Station, Fulham",51.468814,-0.210279,"true",21
"568",608,"Colet Gardens, Hammersmith",51.491093,-0.216493,"true",30
"569",609,"Sugden Road, Clapham",51.46512358,-0.157788279,"true",19
"570",610,"Danvers Street, West Chelsea",51.48256792,-0.172078187,"true",21
"571",611,"Princedale Road , Holland Park",51.50646524,-0.208486599,"true",20
"572",612,"Wandsworth Rd, Isley Court, Wandsworth Road",51.46925984,-0.141812513,"true",30
"573",613,"Woodstock Grove, Shepherd's Bush",51.50403821,-0.217400093,"true",24
"574",614,"London Fields, Hackney Central",51.54119,-0.058826101,"true",21
"575",615,"Finlay Street, Fulham",51.4768851,-0.215895601,"true",24
"576",616,"Aintree Street, Fulham",51.48102131,-0.209973497,"true",24
"577",617,"Elysium Place, Fulham",51.47107905,-0.207842908,"true",21
"578",618,"Eel Brook Common, Walham Green",51.47625965,-0.193254007,"true",24
"579",619,"Irene Road, Parsons Green",51.4737636,-0.197010096,"true",43
"580",620,"Surrey Lane, Battersea",51.47518024,-0.167160736,"true",28
"581",621,"Wandsworth Town Station, Wandsworth",51.46086446,-0.187427294,"true",33
"582",622,"Lansdowne Road, Ladbroke Grove",51.50748124,-0.205535908,"true",29
"583",623,"Nantes Close, Wandsworth",51.46193072,-0.180791784,"true",22
"584",624,"Courland Grove, Wandsworth Road",51.4729184,-0.132102704,"true",40
"585",625,"Queen's Circus, Battersea Park",51.47761941,-0.149551631,"true",28
"586",626,"Normand Park, West Kensington",51.48438657,-0.20481514,"true",24
"587",627,"Holden Street, Battersea",51.4687905,-0.158230901,"true",20
"588",628,"William Morris Way, Sands End",51.46881971,-0.184318843,"true",26
"589",629,"Morie Street, Wandsworth",51.45995384,-0.190184054,"true",28
"590",630,"Clarence Walk, Stockwell",51.47073264,-0.126994068,"true",28
"591",631,"Battersea Park Road, Nine Elms",51.4795017,-0.141770709,"true",27
"592",632,"Sheepcote Lane, Battersea",51.47053858,-0.163041605,"true",28
"593",633,"Vereker Road, West Kensington",51.48959104,-0.209378594,"true",32
"594",634,"Brook Green South, Brook Green",51.49434708,-0.215804559,"true",33
"595",635,"Greyhound Road, Hammersmith",51.48606206,-0.214428378,"true",37
"596",636,"South Park, Sands End",51.46706414,-0.193502076,"true",28
"597",637,"Spencer Park, Wandsworth Common",51.45787019,-0.174691623,"true",25
"598",638,"Falcon Road, Clapham Junction",51.46663393,-0.169821175,"true",28
"599",640,"Silverthorne Road, Battersea",51.47286577,-0.148059277,"true",28
"600",641,"Archbishop's Park, Waterloo",51.49824168,-0.117495865,"true",23
"601",642,"Fawcett Close, Battersea",51.46916161,-0.174485792,"true",36
"602",643,"All Saints' Road, Portobello",51.5190427,-0.204764421,"true",22
"603",644,"Rainville Road, Hammersmith",51.48373225,-0.223852256,"true",36
"604",646,"Buckingham Gate, Westminster",51.49886563,-0.137424571,"true",16
"605",647,"Richmond Way, Shepherd's Bush",51.50035306,-0.217515071,"true",27
"606",648,"Peterborough Road, Sands End",51.46904022,-0.19627483,"true",30
"607",649,"World's End Place, West Chelsea",51.48180515,-0.18027465,"true",22
"608",650,"St. Mark's Road, North Kensington",51.51687069,-0.213872396,"true",21
"609",651,"Thorndike Close, West Chelsea",51.48089844,-0.183853573,"true",25
"610",652,"Evesham Street, Avondale",51.51148696,-0.218190203,"true",29
"611",653,"Simpson Street, Clapham Junction",51.47084722,-0.17070367,"true",25
"612",654,"Ashmole Estate, Oval",51.48267821,-0.117661574,"true",34
"613",655,"Crabtree Lane, Fulham",51.48294452,-0.219346128,"true",27
"614",656,"Broomhouse Lane, Parsons Green",51.46841875,-0.199135704,"true",29
"615",657,"Blythe Road West, Shepherd's Bush",51.49968,-0.221791551,"true",21
"616",658,"Ethelburga Estate, Battersea Park",51.47729232,-0.16478637,"true",30
"617",659,"Blackfriars Station, St. Paul's",51.511934,-0.10307894,"true",35
"618",660,"West Kensington Station, West Kensington",51.49087074,-0.206029743,"true",22
"619",661,"All Saints Church, Portobello",51.51632095,-0.202608612,"true",37
"620",662,"Phene Street, Chelsea",51.48498496,-0.167919869,"true",24
"621",663,"Clarendon Road, Avondale",51.51323001,-0.211593602,"true",24
"622",664,"Austin Road, Battersea Park",51.474376,-0.155442787,"true",24
"623",665,"Smugglers Way, Wandsworth",51.46108367,-0.191722864,"true",22
"624",666,"Harris Academy, Bermondsey",51.492668,-0.072350665,"true",18
"625",667,"Shepherd's Bush Road North, Shepherd's Bush",51.5015946,-0.222293381,"true",34
"626",668,"Ravenscourt Park Station, Hammersmith",51.49422354,-0.236769936,"true",26
"627",669,"Teversham Lane, Stockwell",51.47614939,-0.1232585,"true",39
"628",670,"Ashley Crescent, Battersea",51.46718562,-0.152248582,"true",28
"629",671,"Parsons Green Station, Parsons Green",51.475089,-0.201968,"true",56
"630",672,"Chicheley Street, South Bank",51.502698,-0.1167474,"true",24
"631",673,"Hibbert Street, Battersea",51.46517078,-0.18038939,"true",36
"632",674,"Carnegie Street, King's Cross",51.53546778,-0.11619105,"true",40
"633",675,"Usk Road, Clapham Junction",51.46348914,-0.182126248,"true",30
"634",676,"Hartington Road, Stockwell",51.47787084,-0.126874471,"true",35
"635",677,"Heath Road, Battersea",51.46866929,-0.146544642,"true",27
"636",678,"Esmond Street, Putney",51.46231278,-0.211468596,"true",30
"637",679,"Orbel Street, Battersea",51.47453545,-0.170210533,"true",26
"638",680,"Westbridge Road, Battersea",51.47768469,-0.170329317,"true",28
"639",681,"Bishop's Avenue, Fulham",51.47303687,-0.214749808,"true",46
"640",682,"Crisp Road, Hammersmith",51.48810829,-0.22660621,"true",46
"641",683,"Dorothy Road, Clapham Junction",51.46506424,-0.163750945,"true",28
"642",684,"Neville Gill Close, Wandsworth",51.45475251,-0.195197203,"true",32
"643",685,"Osiers Road, Wandsworth",51.46067005,-0.198735357,"true",30
"644",686,"Beryl Road, Hammersmith",51.48814438,-0.222456468,"true",26
"645",687,"Clements Road, Bermondsey",51.4954,-0.061698585,"true",23
"646",688,"Northfields, Wandsworth",51.46095151,-0.20066766,"true",28
"647",689,"Spanish Road, Clapham Junction",51.45922541,-0.180884959,"true",30
"648",690,"Stanley Grove, Battersea",51.47047503,-0.152130083,"true",24
"649",691,"Erin Close, Walham Green",51.47946386,-0.195777222,"true",24
"650",692,"Cadogan Close, Victoria Park",51.54211855,-0.028941601,"true",22
"651",693,"Felsham Road, Putney",51.464786,-0.215618902,"true",18
"652",694,"Putney Rail Station, Putney",51.46071722,-0.216526155,"true",20
"653",695,"Islington Green, Angel",51.53638435,-0.102757578,"true",21
"654",696,"Charing Cross Hospital, Hammersmith",51.48728535,-0.217995921,"true",21
"655",697,"Charlotte Terrace, Angel",51.53639219,-0.112721065,"true",25
"656",698,"Shoreditch Court, Haggerston",51.53908372,-0.070329419,"true",35
"657",699,"Belford House, Haggerston",51.5366541,-0.07023031,"true",39
"658",700,"Battersea Church Road, Battersea",51.47696496,-0.174347066,"true",25
"659",701,"Vicarage Crescent, Battersea",51.47287627,-0.176267008,"true",30
"660",702,"Durant Street, Bethnal Green",51.52868155,-0.065550321,"true",24
"661",703,"St. Bride Street, Holborn",51.51505991,-0.10534448,"true",25
"662",704,"Mexfield Road, East Putney",51.45682071,-0.202802098,"true",18
"663",705,"Upper Richmond Road, Putney",51.45971528,-0.212145939,"true",25
"664",706,"Snowsfields, London Bridge",51.50215353,-0.083632928,"true",31
"665",707,"Barons Court Station, West Kensington",51.49021762,-0.215087092,"true",32
"666",708,"Disraeli Road, Putney",51.4616107,-0.2161458,"true",33
"667",709,"Montserrat Road , Putney",51.46321128,-0.215550761,"true",23
"668",710,"Albert Bridge Road, Battersea Park",51.47439218,-0.163347594,"true",20
"669",711,"Everington Street, Fulham",51.48335692,-0.216305546,"true",31
"670",712,"Mile End Stadium, Mile End",51.51854104,-0.034903714,"true",22
"671",713,"Hawley Crescent, Camden Town",51.54100708,-0.14326094,"true",22
"672",714,"Stewart's Road, Wandsworth Road",51.47311696,-0.137235175,"true",28
"673",715,"Aylward Street, Stepney",51.51563007,-0.049067243,"true",22
"674",716,"Stainsby Road , Poplar",51.51542791,-0.02356501,"true",24
"675",717,"Dunston Road , Haggerston",51.53658514,-0.075885686,"true",43
"676",718,"Ada Street, Hackney Central",51.53571683,-0.060291813,"true",45
"677",719,"Victoria Park Road, Hackney Central",51.53642464,-0.054162264,"true",34
"678",720,"Star Road, West Kensington",51.48724429,-0.205279052,"true",23
"679",721,"Wendon Street, Old Ford",51.53603947,-0.026262677,"true",18
"680",722,"Finnis Street, Bethnal Green",51.52458353,-0.058631453,"true",19
"681",723,"Stephendale Road, Sands End",51.46822047,-0.190346493,"true",48
"682",724,"Alma Road, Wandsworth",51.45799126,-0.184806157,"true",28
"683",725,"Walworth Square, Walworth",51.491327,-0.096518684,"true",24
"684",726,"Alfreda Street, Battersea Park",51.47505096,-0.150908371,"true",22
"685",727,"Chesilton Road, Fulham",51.47569809,-0.20587627,"true",23
"686",728,"Putney Bridge Road, East Putney",51.46199911,-0.206240805,"true",29
"687",729,"St. Peter's Terrace, Fulham",51.47893931,-0.208485293,"true",24
"688",730,"Bridge Avenue, Hammersmith",51.49208492,-0.229116862,"true",18
"689",731,"Michael Road, Walham Green",51.47727637,-0.189210466,"true",37
"690",732,"Duke Street Hill, London Bridge",51.50630441,-0.087262995,"true",21
"691",733,"Park Lane, Mayfair",51.50542628,-0.150817316,"true",18
"692",734,"Plough Terrace, Clapham Junction",51.46230566,-0.175407201,"true",31
"693",735,"Grant Road East, Clapham Junction",51.46489445,-0.17302926,"true",28
"694",736,"Queensdale Road, Shepherd's Bush",51.50659035,-0.216104479,"true",28
"695",737,"Fulham Broadway, Walham Green",51.47993289,-0.19411695,"true",26
"696",738,"Imperial Road, Sands End",51.47514228,-0.187278987,"true",37
"697",739,"Hortensia Road, West Brompton",51.48176572,-0.185273723,"true",28
"698",740,"Sirdar Road, Avondale",51.51092871,-0.214594781,"true",26
"699",741,"Freston Road, Avondale",51.5129814,-0.219486603,"true",23
"700",742,"Blenheim Crescent, Ladbroke Grove",51.51510818,-0.208565479,"true",22
"701",743,"Oxford Road, Putney",51.46079243,-0.212607684,"true",29
"702",744,"Ingrave Street, Clapham Junction",51.46745485,-0.172293499,"true",30
"703",745,"Upcerne Road, West Chelsea",51.47816972,-0.18243547,"true",29
"704",746,"Lots Road, West Chelsea",51.4795738,-0.17903854,"true",24
"705",747,"Ormonde Gate, Chelsea",51.48796408,-0.161765173,"true",24
"706",748,"Hertford Road, De Beauvoir Town",51.53727795,-0.079201849,"true",25
"707",749,"Haggerston Road, Haggerston",51.53932857,-0.074284675,"true",37
"708",750,"Culvert Road, Battersea",51.4710956,-0.157850096,"true",27
"709",751,"Newton Street, Covent Garden",51.51612862,-0.120909408,"true",24
"710",752,"London Street, Paddington",51.515117,-0.17371276,"true",19
"711",754,"Grenfell Road, Avondale",51.5129006,-0.214762686,"true",24
"712",755,"The Vale, Chelsea",51.48512191,-0.174971902,"true",24
"713",756,"Prince of Wales Drive, Battersea Park",51.47515398,-0.159169801,"true",21
"714",757,"Harcourt Terrace, West Brompton",51.48795853,-0.187404506,"true",24
"715",758,"Westbourne Park Road, Portobello",51.51787005,-0.201005397,"true",23
"716",759,"Broadley Terrace, Marylebone",51.52456169,-0.165668686,"true",18
"717",761,"Humbolt Road, Fulham",51.48321729,-0.211860644,"true",26
"718",762,"Storey's Gate, Westminster",51.50070305,-0.129698963,"true",21
"719",763,"Mile End Park Leisure Centre, Mile End",51.52059714,-0.032566533,"true",47
"720",764,"St. John's Road, Clapham Junction",51.46239255,-0.16829214,"true",33
"721",765,"Ranelagh Gardens, Fulham",51.46760141,-0.20682737,"true",39
"722",766,"Ram Street, Wandsworth",51.45752945,-0.192165613,"true",25
"723",767,"Santos Road, Wandsworth",51.45705988,-0.200806304,"true",30
"724",768,"Clapham Common North Side, Clapham Common",51.46134382,-0.159322467,"true",37
"725",769,"Sandilands Road, Walham Green",51.473611,-0.191803,"true",21
"726",770,"Gwendwr Road, West Kensington",51.491026,-0.209121,"true",30
"727",771,"Rifle Place, Avondale",51.509224,-0.216016,"true",21
"728",772,"Binfield Road, Stockwell",51.47250956,-0.122831913,"true",35
"729",773,"Tallis Street, Temple",51.511891,-0.107349,"true",24
"730",774,"Hurlingham Park, Parsons Green",51.470131,-0.20464,"true",20
"731",775,"Little Brook Green, Brook Green",51.496664,-0.223868,"true",33
"732",777,"Limburg Road, Clapham Junction",51.4619230679,-0.165297856693,"true",21
"733",779,"Houndsditch, Aldgate",51.514449,-0.077178979,"true",28
"734",780,"Imperial Wharf Station, Sands End",51.474665,-0.18316517,"true",25
"735",781,"Victoria & Albert Museum, South Kensington",51.495898,-0.173009,"true",30
"736",782,"Halford Road, West Kensington",51.483911,-0.19760944,"true",24
"737",783,"Monier Road, Hackney Wick",51.5403115,-0.021630359,"true",27
"738",784,"East Village, Queen Elizabeth Olympic Park",51.546326,-0.00993526,"true",34
"739",786,"Lee Valley VeloPark, Queen Elizabeth Olympic Park",51.549369,-0.015717614,"true",44
"740",787,"Timber Lodge, Queen Elizabeth Olympic Park",51.546805,-0.01469126,"true",35
"741",788,"Copper Box Arena, Queen Elizabeth Olympic Park",51.544909,-0.0205426,"true",31
"742",789,"Podium, Queen Elizabeth Olympic Park",51.538718,-0.011889482,"true",40
"743",790,"Stratford Station, Stratford",51.541793,-0.00481,"true",28
"744",792,"Blackfriars Road, Southwark",51.505461,-0.10454093,"true",42
"745",793,"Cromer Street, Bloomsbury",51.528279,-0.11955857,"true",28
"746",794,"Victoria Rise, Clapham Common",51.461376,-0.14780467,"true",23
"747",795,"Euston Square Gardens, Euston",51.527068,-0.13186102,"true",30
"748",796,"Coram Street, Bloomsbury",51.524,-0.12640984,"true",29
"749",797,"Ossulston Street, Somers Town",51.5293,-0.12827903,"true",30
"750",798,"Birkenhead Street, King's Cross",51.5301998755,-0.122299440803,"true",27
"751",799,"Kings Gate House, Westminster",51.4976984561,-0.137598896295,"true",24
"752",800,"Sopwith Way, Battersea Park",51.4811219398,-0.149035374873,"true",30
"753",801,"Lavington Street, Bankside",51.5052241745,-0.0980318118664,"true",29
"754",802,"Albert Square, Stockwell",51.4765900593,-0.118256789081,"true",32
"755",803,"Southwark Street, Bankside",51.5054099403,-0.0983410884509,"true",23
"756",804,"Good's Way, King's Cross",51.5346677396,-0.125078652873,"true",27
"757",805,"The Metropolitan, Portobello",51.520509,-0.20080483,"true",18
"758",806,"Handyside Street, King's Cross",51.5372405623,-0.124807385707,"true",27
"759",807,"Bevington Road West, North Kensington",51.5212,-0.208888173,"true",24
"760",808,"Gauden Road, Clapham",51.464995,-0.13090885,"true",28
"761",809,"Lincoln's Inn Fields, Holborn",51.5162778834,-0.118272991635,"true",28
"762",810,"Tate Modern, Bankside",51.5067252868,-0.0988072461627,"true",30
"763",811,"Westferry Circus, Canary Wharf",51.5057030357,-0.0277727426235,"true",36
"764",812,"Here East North, Queen Elizabeth Olympic Park",51.5487311915,-0.0226065549321,"true",28
"765",813,"New Spring Gardens Walk, Vauxhall",51.4878074485,-0.122759625866,"true",37
"766",814,"Clapham Road, Lingham Street, Stockwell",51.4714330677,-0.123670735702,"true",30
"767",815,"Lambeth Palace Road, Waterloo",51.5000891978,-0.116628700672,"true",35
"768",816,"Here East South, Queen Elizabeth Olympic Park",51.5465327935,-0.0205975904647,"true",28
"769",817,"Riverlight South, Nine Elms",51.4813354746,-0.138212295869,"true",26
"770",818,"Westminster Pier, Westminster",51.501513,-0.12382322,"true",27
"771",819,"Belvedere Road 2, South Bank",51.50621,-0.114842,"true",38
"772",820,"Victory Place, Walworth",51.492807,-0.091938,"true",24
"773",821,"Battersea Power Station, Battersea Park",51.4835074867,-0.147714557371,"true",27
"774",827,"Cranmer Road, Stockwell",51.479601,-0.11147178,"true",24
"775",828,"Normandy Road, Stockwell",51.473874,-0.11258096,"true",32
"776",829,"Wynne Road, Stockwell",51.469217,-0.11268674,"true",25
"777",830,"Sidney Road, Stockwell",51.469202,-0.11902256,"true",27
"778",831,"St John's Crescent, Brixton",51.466232,-0.11317995,"true",25
"779",832,"Ferndale Road, Brixton",51.464019,-0.11578197,"true",30
"780",833,"Saltoun Road, Brixton",51.460232,-0.11537509,"true",42
"781",834,"Gas Holders, Battersea Park",51.477966,-0.14785703,"true",26
"782",835,"Farringdon Street, Holborn",51.516785,-0.10494775,"true",25
"783",836,"York Way, Kings Cross",51.541596,-0.12544145,"true",24
"784",838,"Fore Street, Guildhall",51.518093,-0.0914017,"true",10
"785",839,"Sea Containers, South Bank",51.508033,-0.10682363,"true",30
"786",840,"George Row, Bermondsey",51.498585,-0.068981764,"true",22
"787",841,"Tower Wharf, Bermondsey",51.500845,-0.074704305,"true",20
"788",842,"Temple Gardens, Temple",51.510981,-0.10832249,"true",24
"789",844,"Canada Water Station, Rotherhithe",51.498439,-0.049150215,"true",35
"790",845,"Bermondsey Station, Bermondsey",51.497995,-0.063471392,"true",30
"791",846,"Burgess Park Albany Road, Walworth",51.48224,-0.0942844,"true",30
"792",847,"South Bermondsey Station, Bermondsey",51.488067,-0.057774596,"true",24
"793",849,"Crimscott Street, Bermondsey",51.495598,-0.078893,"true",19
"794",850,"Brandon Street, Walworth",51.489102,-0.0915489,"true",22
"795",851,"The Blue, Bermondsey",51.492221,-0.0625130999999897,"true",22
"796",852,"Coomer Place, West Kensington",51.4835707,-0.202038700000003,"true",27
